{
  "data": [
    {
      "name": "中国银行南京山西路支行",
      "address": "南京市山西路57号",
      "tel": "025-32322132",
      "longitude": "118.781993",
      "latitude": "32.074925"
    },
    {
      "name": "中国银行南京山西路支行",
      "address": "南京市山西路57号",
      "tel": "025-32322132",
      "longitude": "118.781993",
      "latitude": "32.074925"
    },
    {
      "name": "中国银行南京山西路支行",
      "address": "南京市山西路57号",
      "tel": "025-32322132",
      "longitude": "118.781993",
      "latitude": "32.074925"
    },
    {
      "name": "中国银行南京山西路支行",
      "address": "南京市山西路57号",
      "tel": "025-32322132",
      "longitude": "118.781993",
      "latitude": "32.074925"
    },
    {
      "name": "中国银行南京山西路支行",
      "address": "南京市山西路57号",
      "tel": "025-32322132",
      "longitude": "118.781993",
      "latitude": "32.074925"
    },
    {
      "name": "中国银行南京山西路支行",
      "address": "南京市山西路57号",
      "tel": "025-32322132",
      "longitude": "118.781993",
      "latitude": "32.074925"
    },
    {
      "name": "中国银行南京山西路支行",
      "address": "南京市山西路57号",
      "tel": "025-32322132",
      "longitude": "118.781993",
      "latitude": "32.074925"
    },
    {
      "name": "中国银行南京山西路支行",
      "address": "南京市山西路57号",
      "tel": "025-32322132",
      "longitude": "118.781993",
      "latitude": "32.074925"
    },
    {
      "name": "中国银行南京山西路支行",
      "address": "南京市山西路57号",
      "tel": "025-32322132",
      "longitude": "118.781993",
      "latitude": "32.074925"
    },
    {
      "name": "中国银行南京山西路支行",
      "address": "南京市山西路57号",
      "tel": "025-32322132",
      "longitude": "118.781993",
      "latitude": "32.074925"
    },
    {
      "name": "中国银行南京山西路支行",
      "address": "南京市山西路57号",
      "tel": "025-32322132",
      "longitude": "118.781993",
      "latitude": "32.074925"
    },
    {
      "name": "中国银行南京山西路支行",
      "address": "南京市山西路57号",
      "tel": "025-32322132",
      "longitude": "118.781993",
      "latitude": "32.074925"
    },
    {
      "name": "中国银行南京山西路支行",
      "address": "南京市山西路57号",
      "tel": "025-32322132",
      "longitude": "118.781993",
      "latitude": "32.074925"
    },
    {
      "name": "中国银行南京山西路支行",
      "address": "南京市山西路57号",
      "tel": "025-32322132",
      "longitude": "118.781993",
      "latitude": "32.074925"
    },
    {
      "name": "中国银行南京山西路支行",
      "address": "南京市山西路57号",
      "tel": "025-32322132",
      "longitude": "118.781993",
      "latitude": "32.074925"
    },
    {
      "name": "中国银行南京山西路支行",
      "address": "南京市山西路57号",
      "tel": "025-32322132",
      "longitude": "118.781993",
      "latitude": "32.074925"
    },
    {
      "name": "中国银行南京山西路支行",
      "address": "南京市山西路57号",
      "tel": "025-32322132",
      "longitude": "118.781993",
      "latitude": "32.074925"
    },
    {
      "name": "中国银行南京山西路支行",
      "address": "南京市山西路57号",
      "tel": "025-32322132",
      "longitude": "118.781993",
      "latitude": "32.074925"
    },
    {
      "name": "中国银行南京山西路支行",
      "address": "南京市山西路57号",
      "tel": "025-32322132",
      "longitude": "118.781993",
      "latitude": "32.074925"
    },
    {
      "name": "中国银行南京山西路支行",
      "address": "南京市山西路57号",
      "tel": "025-32322132",
      "longitude": "118.781993",
      "latitude": "32.074925"
    },
    {
      "name": "中国银行南京山西路支行",
      "address": "南京市山西路57号",
      "tel": "025-32322132",
      "longitude": "118.781993",
      "latitude": "32.074925"
    },
    {
      "name": "中国银行南京山西路支行",
      "address": "南京市山西路57号",
      "tel": "025-32322132",
      "longitude": "118.781993",
      "latitude": "32.074925"
    },
    {
      "name": "中国银行南京山西路支行",
      "address": "南京市山西路57号",
      "tel": "025-32322132",
      "longitude": "118.781993",
      "latitude": "32.074925"
    },
    {
      "name": "中国银行南京山西路支行",
      "address": "南京市山西路57号",
      "tel": "025-32322132",
      "longitude": "118.781993",
      "latitude": "32.074925"
    },
    {
      "name": "中国银行南京山西路支行",
      "address": "南京市山西路57号",
      "tel": "025-32322132",
      "longitude": "118.781993",
      "latitude": "32.074925"
    },
    {
      "name": "中国银行南京山西路支行",
      "address": "南京市山西路57号",
      "tel": "025-32322132",
      "longitude": "118.781993",
      "latitude": "32.074925"
    },
    {
      "name": "中国银行南京山西路支行",
      "address": "南京市山西路57号",
      "tel": "025-32322132",
      "longitude": "118.781993",
      "latitude": "32.074925"
    },
    {
      "name": "中国银行南京山西路支行",
      "address": "南京市山西路57号",
      "tel": "025-32322132",
      "longitude": "118.781993",
      "latitude": "32.074925"
    },
    {
      "name": "中国银行南京山西路支行",
      "address": "南京市山西路57号",
      "tel": "025-32322132",
      "longitude": "118.781993",
      "latitude": "32.074925"
    },
    {
      "name": "中国银行南京山西路支行",
      "address": "南京市山西路57号",
      "tel": "025-32322132",
      "longitude": "118.781993",
      "latitude": "32.074925"
    },
    {
      "name": "中国银行南京山西路支行",
      "address": "南京市山西路57号",
      "tel": "025-32322132",
      "longitude": "118.781993",
      "latitude": "32.074925"
    },
    {
      "name": "中国银行南京山西路支行",
      "address": "南京市山西路57号",
      "tel": "025-32322132",
      "longitude": "118.781993",
      "latitude": "32.074925"
    },
    {
      "name": "中国银行南京山西路支行",
      "address": "南京市山西路57号",
      "tel": "025-32322132",
      "longitude": "118.781993",
      "latitude": "32.074925"
    },
    {
      "name": "中国银行南京山西路支行",
      "address": "南京市山西路57号",
      "tel": "025-32322132",
      "longitude": "118.781993",
      "latitude": "32.074925"
    },
    {
      "name": "中国银行南京山西路支行",
      "address": "南京市山西路57号",
      "tel": "025-32322132",
      "longitude": "118.781993",
      "latitude": "32.074925"
    },
    {
      "name": "中国银行南京山西路支行",
      "address": "南京市山西路57号",
      "tel": "025-32322132",
      "longitude": "118.781993",
      "latitude": "32.074925"
    },
    {
      "name": "中国银行南京山西路支行",
      "address": "南京市山西路57号",
      "tel": "025-32322132",
      "longitude": "118.781993",
      "latitude": "32.074925"
    },
    {
      "name": "中国银行南京山西路支行",
      "address": "南京市山西路57号",
      "tel": "025-32322132",
      "longitude": "118.781993",
      "latitude": "32.074925"
    },
    {
      "name": "中国银行南京山西路支行",
      "address": "南京市山西路57号",
      "tel": "025-32322132",
      "longitude": "118.781993",
      "latitude": "32.074925"
    }
  ]
}
